,City,Cloudiness,Country,Date,Humidity,Lat,Lng,Max Temp,Wind Speed
0,khani,34,GE,1645511340,94,41.9563,42.9566,277.91,2.65
1,sao filipe,4,IN,1645511341,15,20.5113,76.2129,301.95,1.22
2,waingapu,100,ID,1645511341,76,-9.6567,120.2641,300.14,2.92
3,kapaa,75,US,1645511342,77,22.0752,-159.319,295.33,4.63
4,chuy,29,UY,1645511342,91,-33.6971,-53.4616,291.25,2.88
5,busselton,0,AU,1645511324,47,-33.65,115.3333,305.98,5.55
6,nouadhibou,100,MR,1645511343,73,20.931,-17.0347,290.55,8.37
7,vaini,75,TO,1645511324,94,-21.2,-175.2,300.24,3.09
8,lawton,75,US,1645511071,88,34.6087,-98.3903,289.19,1.54
9,bluff,78,NZ,1645511329,64,-46.6,168.3333,288.6,9.48
10,mataura,100,NZ,1645511321,98,-46.1927,168.8643,288.42,0.19
11,avarua,40,CK,1645511344,83,-21.2078,-159.775,300.18,6.17
12,lagoa,12,PT,1645511345,67,39.05,-27.9833,286.81,1.12
13,sinnamary,100,GF,1645511127,89,5.3833,-52.95,297.9,3.15
14,ribeira grande,0,ES,1645511345,83,42.7461,-8.4439,278.91,1.03
15,plettenberg bay,77,DE,1645511346,94,51.2167,7.8833,276.31,5.16
16,rikitea,19,PF,1645511329,72,-23.1203,-134.9692,298.47,2.13
17,barrow,100,US,1645511322,86,71.2906,-156.7887,266.16,7.2
18,halifax,98,CA,1645511154,83,44.6453,-63.5724,275.18,3.09
19,victoria,100,HK,1645511216,94,22.2855,114.1577,285.0,4.92
20,longyearbyen,40,SJ,1645511347,71,78.2186,15.6401,255.06,1.54
21,pangnirtung,100,CA,1645511347,98,66.1451,-65.7125,241.92,0.88
22,aklavik,100,CA,1645511348,80,68.2191,-135.0107,256.55,10.47
23,east london,100,IS,1645511348,96,65.0,-15.0,275.01,10.35
24,katsuura,46,JP,1645511349,46,35.1333,140.3,282.17,8.43
25,namibe,84,AO,1645511349,84,-15.1961,12.1522,297.32,0.71
26,ushuaia,100,AR,1645511321,93,-54.8,-68.3,282.96,9.26
27,ewo,100,CG,1645511350,81,-0.8725,14.8206,296.99,1.29
28,byron bay,100,US,1645511350,89,44.0327,-92.6455,266.16,7.72
29,san pedro,37,ML,1645511351,9,13.3034,-4.8956,295.37,4.16
30,tessalit,50,ML,1645511351,11,20.1986,1.0114,293.38,3.48
31,qaanaaq,18,GL,1645511352,57,77.484,-69.3632,251.05,3.47
32,yar-sale,100,RU,1645511352,95,66.8333,70.8333,265.78,3.95
33,lebu,36,CL,1645511353,90,-37.6167,-73.65,285.81,4.68
34,clocolan,1,ZA,1645511353,29,-28.9137,27.5656,292.07,1.43
35,usinsk,100,RU,1645511354,95,65.9939,57.5281,264.79,3.5
36,koroni,48,GR,1645511354,78,36.8,21.95,287.63,3.98
37,kirakira,95,SB,1645511355,77,-10.4544,161.9205,301.85,1.61
38,bichena,36,ET,1645511355,39,10.45,38.2,289.94,1.71
39,amparafaravola,100,MG,1645511355,89,-17.5833,48.2167,293.15,3.86
40,cabo san lucas,10,BR,1645511356,79,-8.2833,-35.0333,299.11,1.37
41,mar del plata,26,ES,1645511356,93,43.4002,-4.0094,280.94,0.89
42,atuona,4,PF,1645511318,72,-9.8,-139.0333,299.13,7.87
43,meulaboh,91,ID,1645511357,68,4.1363,96.1285,302.59,2.45
44,hithadhoo,100,MV,1645511357,71,-0.6,73.0833,301.31,3.75
45,jamestown,100,US,1645511333,46,42.097,-79.2353,285.77,3.6
46,noumea,64,NC,1645511358,99,-22.2763,166.4572,303.14,5.9
47,alofi,100,NU,1645511358,94,-19.0595,-169.9187,298.09,0.51
48,isangel,40,VU,1645511328,66,-19.55,169.2667,304.21,2.06
49,clyde river,95,US,1645511359,57,41.3042,-82.9752,286.14,6.88
50,kaitangata,98,NZ,1645511360,93,-46.2817,169.8464,284.08,1.9
51,kahului,40,US,1645511213,83,20.8947,-156.47,297.51,5.14
52,cape town,69,CL,1645511360,86,-36.413,-71.9028,284.12,1.59
53,port macquarie,100,CD,1645511360,77,-7.0349,29.7638,296.92,1.71
54,caldas novas,96,CO,1645511361,99,6.0911,-75.6357,289.65,0.95
55,provideniya,100,RU,1645511361,97,64.3833,-173.3,269.39,1.7
56,turmalina,60,BR,1645511362,96,-17.2856,-42.73,290.0,0.78
57,nanortalik,94,GL,1645511363,82,60.1432,-45.2371,260.21,5.56
58,tasiilaq,100,GL,1645511363,79,65.6145,-37.6368,271.24,19.64
59,kysyl-syr,98,RU,1645511363,91,63.8986,122.7617,258.46,0.83
60,albany,78,US,1645511237,77,42.6001,-73.9662,274.59,0.22
61,wismar,34,DE,1645511364,84,53.9,11.4667,277.64,4.47
62,banamba,15,ML,1645511365,13,13.55,-7.45,294.63,4.1
63,yulara,0,AU,1645511365,17,-25.2406,130.9889,307.06,3.09
64,ilulissat,100,GL,1645511366,65,69.2167,-51.1,254.16,4.12
65,hermanus,9,ZA,1645511366,73,-34.4187,19.2345,291.43,1.51
66,bredasdorp,4,ZA,1645511331,77,-34.5322,20.0403,291.77,0.51
67,sibu,40,MY,1645511367,66,2.3,111.8167,304.32,1.54
68,beringovskiy,79,RU,1645511367,95,63.05,179.3167,251.11,3.28
69,lipari,35,IT,1645511367,72,38.4674,14.954,286.05,15.24
70,macas,96,EC,1645511368,96,-2.3167,-78.1167,293.19,0.74
71,yerbogachen,87,RU,1645511368,90,61.2767,108.0108,267.73,4.23
72,shellbrook,69,CA,1645511369,100,53.2168,-106.4011,237.72,1.83
73,kodiak,100,US,1645511369,81,57.79,-152.4072,278.88,0.0
74,sandusky,95,US,1645511370,59,41.3501,-83.1332,286.92,2.68
75,tezu,24,IN,1645511370,27,27.9167,96.1667,295.34,2.08
76,arraial do cabo,1,BR,1645511371,93,-22.8362,-46.646,293.82,1.03
77,okha,49,RU,1645511371,85,53.5739,142.9478,254.01,7.64
78,leningradskiy,100,RU,1645511354,98,69.3833,178.4167,243.0,4.87
79,topolobampo,43,MX,1645511371,67,25.6,-109.05,285.96,2.7
80,shadrinsk,97,RU,1645511372,94,56.0852,63.6335,269.05,3.45
81,norman wells,75,US,1645511332,79,35.2226,-97.4395,291.38,6.17
82,ouesso,91,CG,1645511372,67,1.6136,16.0517,296.65,0.34
83,arman,0,RU,1645511373,78,59.7,150.1667,258.12,3.75
84,guerrero negro,0,MX,1645511373,77,17.6667,-100.0,291.26,2.37
85,naze,98,JP,1645511374,62,28.3667,129.4833,284.66,4.94
86,muli,0,MV,1645511374,66,2.9167,73.5667,301.02,3.29
87,puerto ayora,0,ES,1645511330,78,36.5939,-6.233,280.51,1.03
88,taonan,3,CN,1645511375,59,45.3333,122.7833,261.62,2.0
89,constitucion,65,CL,1645511375,92,-35.3333,-72.4167,286.23,3.85
90,rocha,99,UY,1645511375,84,-34.4833,-54.3333,292.54,4.78
91,mahebourg,75,MU,1645511376,89,-20.4081,57.7,302.18,9.77
92,havoysund,100,NO,1645511376,81,70.9963,24.6622,263.64,3.28
93,katy,100,US,1645511270,86,29.7858,-95.8244,296.66,10.29
94,dikson,100,RU,1645511377,94,73.5069,80.5464,262.63,5.34
95,port elizabeth,100,CD,1645511321,77,-7.0349,29.7638,296.92,1.71
96,talnakh,100,RU,1645511378,90,69.4865,88.3972,263.82,9.22
97,inhambane,20,MZ,1645511378,69,-23.865,35.3833,301.14,3.09
98,mys shmidta,96,RU,1645511379,96,62.0589,48.6201,267.31,1.38
99,bonthe,99,SL,1645511379,82,7.5264,-12.505,297.15,0.95
100,shache,79,CN,1645511379,28,38.4167,77.2406,276.32,1.79
101,ponta do sol,8,PT,1645511380,66,38.7333,-28.2667,284.31,0.37
102,gilbues,32,BR,1645511380,85,-9.8317,-45.3439,295.24,1.55
103,paita,55,PE,1645511095,77,-5.0892,-81.1144,295.1,2.91
104,ustye,100,RU,1645511381,94,59.6304,39.736,271.34,5.12
105,voka,100,EE,1645511381,99,59.3997,27.5817,273.24,2.64
106,lakselv,75,NO,1645511382,85,70.0513,24.9718,256.05,1.03
107,nikolskoye,100,RU,1645511382,99,59.7035,30.7861,275.3,2.75
108,pierre,100,US,1645511383,77,44.3683,-100.351,253.07,10.8
109,imuris,10,MX,1645511383,63,30.7833,-110.8667,281.29,2.15
110,anuradhapura,2,LK,1645511357,48,8.3565,80.4173,304.07,2.38
111,castro,3,BR,1645511384,92,-24.7911,-50.0119,290.11,0.87
112,touros,100,BR,1645511384,76,-5.1989,-35.4608,299.65,4.08
113,asau,100,RO,1645511385,100,46.4333,26.4,279.68,1.07
114,ihosy,95,MG,1645511385,75,-22.4,46.1167,296.09,5.96
115,dingle,100,PH,1645511386,72,10.9995,122.6711,300.71,5.71
116,zhangye,12,CN,1645511386,26,38.9342,100.4517,274.11,1.09
117,voyvozh,91,RU,1645511387,95,62.892,54.9635,262.55,1.82
118,monze,64,ZM,1645511388,87,-16.2833,27.4833,293.61,0.78
119,wenling,100,CN,1645511388,84,28.3669,121.36,277.48,6.63
120,sinegorye,5,RU,1645511389,82,62.0788,150.477,244.84,0.7
121,matamoros,14,MX,1645511389,33,25.5333,-103.25,293.1,4.74
122,zyryanka,28,RU,1645511389,96,65.75,150.85,240.14,1.12
123,port alfred,100,CD,1645511326,77,-7.0349,29.7638,296.92,1.71
124,duliagaon,6,IN,1645511390,37,27.3667,95.3167,294.08,1.03
125,erenhot,1,CN,1645511391,61,43.6475,111.9767,263.78,5.53
126,basirhat,0,IN,1645511391,33,22.6685,88.8697,299.14,3.72
127,poso,100,ID,1645511391,69,-1.3959,120.7524,300.87,2.13
128,zhigansk,98,RU,1645511392,96,66.7697,123.3711,252.09,4.68
129,punta arenas,81,PH,1645511393,52,8.9897,125.34,304.17,3.52
130,denpasar,40,ID,1645511228,79,-8.65,115.2167,303.96,7.72
131,sitka,0,US,1645511353,64,57.0531,-135.33,272.09,3.09
132,bathsheba,40,BB,1645511393,78,13.2167,-59.5167,298.49,7.2
133,hobyo,13,SO,1645511394,72,5.3505,48.5268,300.82,8.8
134,fallon,100,US,1645511394,81,39.4735,-118.7774,273.3,3.09
135,brookhaven,53,US,1645511174,90,31.5791,-90.4407,294.4,5.72
136,turukhansk,100,RU,1645511395,94,65.8167,87.9833,265.86,7.72
137,khatanga,100,RU,1645511396,86,71.9667,102.5,260.62,1.32
138,saskylakh,100,RU,1645511396,89,71.9167,114.0833,262.53,3.34
139,bataipora,4,BR,1645511397,92,-22.2953,-53.2711,295.25,1.36
140,fort nelson,39,NL,1645511397,92,52.6517,6.3861,278.13,4.17
141,geraldton,3,AU,1645511397,51,-28.7667,114.6,303.38,11.83
142,airai,100,TL,1645511398,86,-8.9266,125.4092,291.13,0.81
143,bethel,0,US,1645511322,77,41.3712,-73.414,276.62,0.0
144,mendi,100,PG,1645511398,98,-6.1761,143.6513,289.2,1.39
145,majene,100,ID,1645511399,69,-3.5403,118.9707,300.86,5.35
146,kailua,61,US,1645511324,91,21.4022,-157.7394,297.14,0.89
147,san andres,37,ML,1645511351,9,13.3034,-4.8956,295.37,4.16
148,mazamari,100,PE,1645511400,97,-11.3258,-74.5308,293.52,0.68
149,aksaray,100,TR,1645511400,100,38.3726,34.0254,280.92,2.71
150,chifeng,6,CN,1645511401,41,42.2683,118.9636,266.44,6.19
151,gotsu,100,JP,1645511402,50,35.0,132.2167,276.23,8.14
152,richards bay,100,US,1645511403,71,46.8361,-95.9123,255.08,7.2
153,hilo,100,US,1645511404,91,19.7297,-155.09,297.0,2.24
154,teknaf,43,BD,1645511405,44,20.8624,92.3058,300.05,4.19
155,bambous virieux,100,MU,1645511405,77,-20.2567,57.4061,301.56,7.69
156,butaritari,100,KI,1645511406,81,3.0707,172.7902,300.62,8.47
157,baker city,100,US,1645511407,72,30.5882,-91.1682,295.83,6.69
158,hibbing,100,US,1645511408,49,47.4272,-92.9377,253.93,6.17
159,selma,77,US,1645511408,66,36.5708,-119.6121,283.76,2.93
160,tynda,80,RU,1645511409,77,55.1667,124.7167,262.08,3.54
161,mossendjo,100,CG,1645511410,96,-2.9506,12.7261,295.06,0.41
162,hobart,20,AU,1645511268,51,-42.8794,147.3294,293.3,6.17
163,khandyga,100,RU,1645511410,94,62.6667,135.6,250.39,0.76
164,georgetown,20,MY,1645511411,74,5.4112,100.3354,305.11,3.09
165,iqaluit,40,CA,1645511411,74,63.7506,-68.5145,242.42,7.72
166,yeppoon,0,AU,1645511411,72,-23.1333,150.7333,305.03,5.97
167,sao felix do xingu,1,IN,1645511412,14,20.5113,76.2129,303.3,1.11
168,kostomuksha,100,RU,1645511412,96,64.571,30.5767,261.01,2.3
169,kalmunai,4,LK,1645511413,65,7.4167,81.8167,302.25,2.79
170,half moon bay,68,LR,1645511413,89,6.3807,-10.6953,296.53,1.39
171,viedma,87,AR,1645511414,82,-40.8135,-62.9967,288.54,4.67
172,santa cruz,67,PH,1645511414,95,17.486,120.4348,300.94,2.1
173,alyangula,75,AU,1645511415,61,-13.8483,136.4192,301.08,1.03
174,hede,100,CN,1645511415,44,33.7681,120.2517,279.34,6.05
175,ampanihy,0,MG,1645511415,41,-24.7,44.75,306.03,5.14
176,muisne,35,EC,1645511416,89,0.6,-80.0333,296.98,0.73
177,maxixe,20,MZ,1645511416,69,-23.8597,35.3472,301.05,3.09
178,skibbereen,100,IE,1645511417,88,51.55,-9.2667,284.04,11.32
179,iquique,31,CL,1645511417,80,-20.2208,-70.1431,293.71,0.54
180,codrington,0,AU,1645511417,60,-38.2667,141.9667,290.67,7.49
181,altamira,99,BR,1645511418,99,-3.2033,-52.2064,295.17,1.14
182,fortuna,100,US,1645511418,95,40.5982,-124.1573,277.96,2.06
183,cidreira,93,BR,1645511419,78,-30.1811,-50.2056,295.73,2.03
184,saldanha,0,ZA,1645511419,73,-33.0117,17.9442,289.18,3.99
185,jiancheng,67,CN,1645511419,60,30.391,104.5491,280.71,2.52
186,santa barbara,67,PH,1645511420,95,17.486,120.4348,300.94,2.1
187,riberalta,100,BO,1645511420,98,-10.9833,-66.1,296.04,0.56
188,santa maria,67,PH,1645511421,95,17.486,120.4348,300.94,2.1
189,bengkulu,71,ID,1645511421,65,-3.8004,102.2655,302.71,3.71
190,cap malheureux,100,FR,1645511422,93,49.2718,-1.2104,283.94,6.08
191,carnarvon,8,AU,1645511422,62,-24.8667,113.6333,304.19,8.75
192,baruun-urt,8,MN,1645511423,69,46.6806,113.2792,261.77,4.88
193,honiara,100,SB,1645511423,86,-9.4333,159.95,300.92,1.22
194,souillac,75,MU,1645511424,89,-20.5167,57.5167,302.24,9.77
195,chippewa falls,100,US,1645511237,78,46.3,-84.4834,262.47,6.69
196,ramshir,1,IR,1645511424,42,30.8946,49.4092,289.07,5.83
197,ahipara,39,NZ,1645511425,82,-35.1667,173.1667,294.21,0.98
198,hami,0,CN,1645511425,25,42.8,93.45,277.19,1.11
199,jasper,100,US,1645511425,75,37.2001,-94.3502,292.84,4.92
200,itoman,75,JP,1645511426,69,26.1247,127.6694,290.16,6.17
201,vila,39,PT,1645511426,70,42.0304,-8.1588,276.64,1.81
202,ketchikan,0,US,1645511427,50,55.3422,-131.6461,269.41,0.0
203,valdivia,7,CL,1645511427,78,-39.8142,-73.2459,282.38,1.63
204,kattivakkam,4,IN,1645511427,73,13.2167,80.3167,304.2,4.27
205,nova olimpia,100,BR,1645511428,95,-5.5279,-46.7049,294.23,0.71
206,humaita,100,BR,1645511429,99,-7.5061,-63.0208,295.8,1.09
207,shatin,83,AM,1645511429,87,39.8357,45.3019,276.37,1.02
208,mananara,100,MG,1645511430,72,-16.1667,49.7667,300.63,4.13
209,ondangwa,100,NA,1645511430,100,-17.9167,15.95,292.15,2.06
210,tabou,100,CI,1645511430,91,4.423,-7.3528,298.67,2.71
211,karratha,64,AU,1645511431,36,-20.7377,116.8463,308.71,5.85
212,sharjah,40,AE,1645511431,56,25.3573,55.4033,296.24,5.66
213,narsaq,100,GL,1645511432,72,60.9167,-46.05,254.27,1.78
214,bilibino,100,RU,1645511432,99,68.0546,166.4372,237.69,1.17
215,hualmay,100,PE,1645511433,81,-11.0964,-77.6139,294.93,2.93
216,nortelandia,99,BR,1645511433,98,-14.4547,-56.8028,294.17,1.45
217,padra,0,IN,1645511433,42,22.2333,73.0833,301.2,0.0
218,san antonio,37,ML,1645511331,9,13.3034,-4.8956,295.37,4.16
219,dicabisagan,100,PH,1645511434,88,17.0818,122.4157,297.46,4.54
220,ancud,0,CL,1645511435,80,-41.8697,-73.8203,283.39,3.61
221,tuktoyaktuk,75,CA,1645511435,71,69.4541,-133.0374,253.15,9.77
222,saint-philippe,100,RE,1645511436,88,-21.3585,55.7679,302.92,11.31
223,lagunas,100,PE,1645511436,96,-5.2269,-75.6753,295.78,1.01
224,petropavlovsk-kamchatskiy,75,RU,1645511436,54,53.0452,158.6483,270.48,4.0
225,ishigaki,75,JP,1645511274,77,24.3448,124.1572,293.22,5.14
226,port augusta,100,CD,1645511321,77,-7.0349,29.7638,296.92,1.71
227,yellowknife,0,CA,1645511325,91,62.456,-114.3525,243.46,4.12
228,shahrud,89,IR,1645511437,58,36.4182,54.9763,279.65,1.23
229,abu samrah,0,IN,1645511438,18,24.6,72.7,297.59,7.02
230,vagur,100,FO,1645511438,69,61.4732,-6.8119,277.92,16.46
231,gasa,6,PS,1645511439,58,31.5,34.4667,290.31,2.02
232,lucea,7,JM,1645511439,76,18.451,-78.1736,298.07,6.77
233,talcahuano,14,CL,1645511440,90,-36.7167,-73.1167,285.55,3.27
234,langen,75,DE,1645511440,73,49.9933,8.6728,279.43,5.36
235,pocosol,99,CR,1645511441,96,10.3667,-84.6167,296.65,2.67
236,san patricio,37,ML,1645511379,9,13.3034,-4.8956,295.37,4.16
237,dunedin,100,NZ,1645511441,82,-45.8742,170.5036,286.93,4.47
238,aberdeen,100,GB,1645511300,91,57.1437,-2.0981,281.76,9.26
239,alice springs,0,US,1645511442,94,27.7523,-98.0697,294.06,7.2
240,beloha,1,MG,1645511442,46,-25.1667,45.05,305.61,5.4
241,necochea,100,AR,1645511443,92,-38.5473,-58.7368,290.95,4.22
242,tuatapere,1,NZ,1645511443,64,-46.1333,167.6833,288.61,5.19
243,ponta delgada,10,PT,1645511444,67,38.7333,-28.2667,284.3,0.45
244,tupa,0,BR,1645511444,92,-21.9347,-50.5136,293.95,2.6
245,rundu,14,NA,1645511444,60,-17.9333,19.7667,298.1,1.73
246,saurimo,100,AO,1645511445,100,-9.6608,20.3916,291.33,0.0
247,tiksi,100,RU,1645511445,87,71.6872,128.8694,255.25,5.64
248,oeiras,29,BR,1645511446,90,-7.0253,-42.1311,295.18,1.4
249,prince rupert,50,CA,1645511446,100,52.9669,-108.3847,244.53,0.66
250,bilma,0,NE,1645511447,10,18.6853,12.9164,292.83,2.09
251,birao,18,CF,1645511447,11,10.2849,22.7882,298.08,4.9
252,port-cartier,100,CA,1645511448,84,50.0334,-66.8654,252.45,1.62
253,letlhakane,4,BW,1645511449,43,-21.4167,25.5833,301.92,4.32
254,camocim,43,BR,1645511449,90,-2.9022,-40.8411,297.31,4.39
255,fairbanks,75,US,1645511391,85,64.8378,-147.7164,266.38,2.06
256,stende,100,LV,1645511450,97,57.15,22.5333,273.56,4.78
257,ulladulla,100,AU,1645511451,85,-35.35,150.4667,294.13,2.52
258,coteana,63,RO,1645511452,66,44.3,24.4667,278.9,2.04
259,upernavik,100,GL,1645511452,97,72.7868,-56.1549,241.85,2.32
260,mount gambier,100,GB,1645511452,32,53.6597,-1.8537,281.51,3.58
261,puerto ayacucho,0,ES,1645511330,78,36.5939,-6.233,280.51,1.03
262,esperance,1,AU,1645511319,44,-33.8667,121.9,308.06,5.36
263,tevriz,100,RU,1645511453,93,57.509,72.4042,273.04,3.49
264,aquiraz,7,BR,1645511364,83,-3.9014,-38.3911,301.03,4.17
265,barabai,99,ID,1645511327,69,-2.5833,115.3833,302.25,1.53
266,taywarah,97,AF,1645511454,97,33.35,64.4167,271.69,1.39
267,grand gaube,12,US,1645511454,65,38.8755,-109.5012,276.45,5.35
268,buncrana,100,IE,1645511455,79,55.1333,-7.45,280.02,9.23
269,rawson,82,AR,1645511455,63,-43.3002,-65.1023,285.53,3.27
270,grindavik,100,IS,1645511456,100,63.8424,-22.4338,275.12,28.81
271,samarai,100,PG,1645511456,75,-10.6167,150.6667,302.69,4.45
272,novoagansk,98,RU,1645511456,93,61.9449,76.6625,269.69,5.29
273,cockburn town,0,AU,1645511457,21,-32.0833,141.0,302.66,6.5
274,ust-nera,24,RU,1645511457,98,64.5667,143.2,238.48,1.48
275,klaksvik,100,FO,1645511458,69,62.2266,-6.589,277.66,15.67
276,moose factory,100,US,1645511458,66,43.6558,-110.7183,262.14,7.2
277,chamonix-mont-blanc,98,FR,1645511459,95,45.9238,6.8693,275.19,1.43
278,thompson,0,CA,1645511459,75,55.7435,-97.8558,238.24,1.03
279,eureka,82,US,1645511212,79,40.8021,-124.1637,278.11,0.45
280,berlevag,20,NO,1645511326,79,70.8578,29.0864,266.12,6.69
281,canyon,34,US,1645511460,34,34.9803,-101.9188,284.62,5.32
282,coihaique,0,CL,1645511460,70,-45.5752,-72.0662,280.12,0.0
283,praia,75,CV,1645511460,73,14.9215,-23.5087,294.45,7.72
284,cabra,4,ES,1645511461,53,37.4725,-4.4421,282.4,2.11
285,esso,100,RU,1645511461,97,55.9333,158.7,261.77,1.25
286,new norfolk,82,LR,1645511450,93,6.6518,-10.5932,295.01,0.76
287,chokurdakh,78,RU,1645511462,99,70.6333,147.9167,235.24,3.09
288,sanchor,0,IN,1645511462,33,24.7553,71.7722,302.16,9.02
289,ternate,100,ID,1645511462,83,0.8,127.4,297.82,6.42
290,jiangyou,98,CN,1645511463,53,31.7667,104.7167,283.06,2.79
291,manicore,100,BR,1645511463,99,-5.8092,-61.3003,296.3,1.18
292,santiago de las vegas,0,CL,1645511337,67,-33.4569,-70.6483,290.85,3.09
293,russell,100,US,1645511464,93,32.3502,-85.1999,287.99,2.2
294,senno,100,RU,1645511465,96,59.5336,33.9167,272.74,3.56
295,yumen,0,CN,1645511465,49,40.2833,97.2,271.95,4.69
296,porto novo,0,PT,1645511220,73,41.1496,-8.611,283.82,4.12
297,ostersund,0,SE,1645511464,100,63.1792,14.6357,262.4,3.6
298,khorixas,99,NA,1645511466,66,-20.3667,14.9667,298.41,2.01
299,aguas verdes,0,ES,1645511467,70,42.202,-0.2081,276.22,3.6
300,olafsvik,97,IS,1645511467,93,64.8945,-23.7142,275.62,7.69
301,roebourne,78,AU,1645511467,30,-20.7833,117.1333,310.04,6.06
302,altamont,100,US,1645511468,82,42.2068,-121.7372,269.14,3.13
303,tual,100,ID,1645511468,80,-5.6667,132.75,300.56,11.07
304,hat yai,65,CZ,1645511469,83,49.9464,18.2393,277.0,3.17
305,salalah,0,OM,1645511377,24,17.0151,54.0924,300.2,6.69
306,visby,100,SE,1645511469,86,57.6409,18.296,271.51,12.35
307,flinders,100,AU,1645511470,89,-34.5833,150.8552,295.47,3.13
308,lerwick,100,GB,1645511470,94,60.1545,-1.1494,278.15,16.82
309,odder,67,DK,1645511362,90,55.9731,10.153,275.5,3.84
310,cayenne,75,GF,1645511471,93,4.9333,-52.3333,297.09,0.51
311,bambanglipuro,64,ID,1645511471,65,-7.95,110.2833,303.01,5.32
312,oga,96,IT,1645511471,93,46.4631,10.347,270.82,3.25
313,axim,91,GH,1645511472,88,4.8699,-2.2405,299.47,2.43
314,sao joao da barra,1,IN,1645511472,14,20.5113,76.2129,303.3,1.11
315,vitoria da conquista,0,BR,1645511473,92,-20.3194,-40.3378,296.07,1.54
316,kavieng,88,PG,1645511473,77,-2.5744,150.7967,300.42,3.8
317,sawtell,75,AU,1645511474,92,-30.3833,153.1,299.33,2.57
318,gat,67,IL,1645511474,100,31.61,34.7642,290.59,1.56
319,luderitz,3,NA,1645511475,52,-26.6481,15.1594,296.33,5.55
320,umtata,75,ZA,1645511475,88,-31.5889,28.7844,292.46,1.03
321,sayyan,12,YE,1645511476,21,15.1718,44.3244,288.9,1.25
322,acari,100,PE,1645511477,87,-15.4311,-74.6158,295.19,1.11
323,indianola,100,US,1645511310,93,41.3581,-93.5574,275.29,6.79
324,kyra,54,RU,1645511477,70,49.5776,111.9753,265.94,1.39
325,carauari,100,BR,1645511478,99,-4.8828,-66.8958,296.07,0.97
326,maragogi,2,BR,1645511478,79,-9.0122,-35.2225,298.21,2.51
327,nome,100,US,1645511479,93,64.5011,-165.4064,273.21,6.69
328,vostok,100,RU,1645511480,89,46.4856,135.8833,258.8,3.55
329,tambilil,100,PH,1645511480,77,5.9622,124.6697,300.66,3.77
330,mandalgovi,0,MN,1645511481,37,45.7625,106.2708,266.35,5.65
331,boksitogorsk,100,RU,1645511481,95,59.474,33.8485,272.93,3.74
332,marawi,94,PH,1645511483,85,7.9986,124.2928,295.73,1.68
333,lang son,40,AT,1645511483,79,46.8445,15.5019,277.81,1.03
334,shubarshi,100,KZ,1645511484,100,48.5872,57.1869,273.81,2.32
335,faanui,100,PF,1645511485,75,-16.4833,-151.75,300.57,9.03
336,avenal,2,US,1645511485,52,36.0041,-120.129,281.05,3.0
337,makat,100,KZ,1645511486,88,47.6469,53.3463,274.96,4.1
338,saiha,3,IN,1645511487,21,22.4833,92.9667,298.74,2.25
339,tandur,95,IN,1645511488,17,17.2333,77.5833,305.47,1.16
340,mount isa,100,GB,1645511489,32,53.6597,-1.8537,281.51,3.58
341,grants,0,US,1645511367,48,35.1473,-107.8514,276.28,5.14
342,cimarron hills,100,US,1645511489,49,37.8067,-100.3482,262.68,10.1
343,gigmoto,100,PH,1645511490,84,13.7796,124.39,299.3,8.2
344,barra patuca,11,BR,1645511490,72,-11.0894,-43.1417,296.62,1.23
345,mlowo,100,TZ,1645511491,87,-9.0,32.9833,292.39,1.72
346,buala,100,SB,1645511491,79,-8.145,159.5921,301.38,1.46
347,porto walter,0,PT,1645511419,73,41.1496,-8.611,283.82,4.12
348,madimba,100,TZ,1645511492,81,-10.4,40.3333,300.3,3.03
349,pochutla,66,MX,1645511493,69,15.7432,-96.4661,295.83,1.57
350,aktash,98,RU,1645511493,62,50.3,87.7333,264.78,2.27
351,chancay,100,PE,1645511493,80,-11.5714,-77.2672,296.37,2.25
352,miandrivazo,88,MG,1645511494,49,-19.5167,45.4667,304.6,2.59
353,smithers,0,CA,1645511211,78,54.7804,-127.1743,257.33,0.0
354,nisia floresta,100,GR,1645511495,85,39.3942,21.6373,282.98,1.75
355,bereda,33,ES,1645511496,72,43.2686,-7.5406,277.82,0.41
356,ust-ishim,100,RU,1645511496,90,57.6935,71.1665,272.02,3.43
357,egvekinot,100,RU,1645511496,96,66.3167,-179.1667,255.51,3.17
358,mangrol,0,IN,1645511497,55,21.1167,70.1167,299.53,4.68
359,yaan,12,NG,1645511498,21,7.3833,8.5667,299.12,2.12
360,oussouye,14,SN,1645511498,73,12.485,-16.5469,293.25,2.76
361,taksimo,91,RU,1645511499,83,56.3444,114.8794,263.88,0.38
362,mgachi,100,RU,1645511499,91,51.05,142.2667,257.23,1.76
363,kolar,11,IN,1645511500,31,13.1333,78.1333,303.4,3.38
364,udachnyy,35,RU,1645511500,72,66.4167,112.4,265.07,2.82
365,wattegama,0,LK,1645511486,39,6.7989,81.4808,304.66,2.7
366,srivardhan,6,IN,1645511501,33,18.0333,73.0167,302.34,3.8
367,freeport,0,US,1645511390,84,40.6576,-73.5832,279.13,2.06
368,avera,99,US,1645511502,92,33.194,-82.5271,288.55,3.03
369,ishinomaki,36,JP,1645511502,59,38.4167,141.3,274.15,11.12
370,cherskiy,87,RU,1645511503,100,68.75,161.3,229.46,2.13
371,ibipeba,1,BR,1645511503,97,-11.6408,-42.0111,291.7,2.6
372,punta de bombon,44,PH,1645511504,55,8.9897,125.34,303.59,3.68
373,hambantota,40,LK,1645511504,66,6.1241,81.1185,305.34,2.06
374,shimoda,3,JP,1645511505,49,34.6667,138.95,282.35,14.23
375,jardim,44,BR,1645511505,95,-21.4803,-56.1381,294.99,1.48
376,nabire,100,ID,1645511505,95,-3.3667,135.4833,297.41,1.08
377,zaragoza,0,ES,1645511234,61,41.6561,-0.8773,281.49,10.29
378,lund,0,SE,1645511506,74,55.7058,13.1932,274.26,4.61
379,lebedinyy,100,RU,1645511507,93,58.5167,125.5167,262.6,6.33
380,lensk,100,RU,1645511508,88,60.7253,114.9278,267.37,5.73
381,arrecife,0,ES,1645511509,82,28.963,-13.5477,290.14,5.14
382,taltal,20,CL,1645511509,84,-25.4,-70.4833,292.07,1.77
383,hasaki,93,JP,1645511509,41,35.7333,140.8333,281.37,2.5
384,ridgecrest,0,US,1645511338,31,35.6225,-117.6709,283.07,13.89
385,yakeshi,51,CN,1645511510,86,49.2833,120.7333,254.9,2.79
386,sao jose da coroa grande,1,IN,1645511472,14,20.5113,76.2129,303.3,1.11
387,kushmurun,100,KZ,1645511511,99,52.4503,64.6311,272.63,3.13
388,lahaina,37,US,1645511238,93,20.8783,-156.6825,297.49,4.65
389,ratzeburg,40,DE,1645511511,78,53.7,10.7667,277.82,6.17
390,padang,98,ID,1645511268,75,-0.9492,100.3543,305.18,2.76
391,sangar,83,RU,1645511512,94,63.9242,127.4739,250.03,1.66
392,eyl,93,SO,1645511513,59,7.9803,49.8164,301.92,8.97
393,port blair,100,CD,1645511321,77,-7.0349,29.7638,296.92,1.71
394,boralday,7,KZ,1645511513,60,43.3578,76.8594,276.07,2.0
395,dawson creek,40,US,1645511514,94,31.7735,-84.4466,288.83,2.75
396,coos bay,100,US,1645511514,98,43.1665,-124.0015,277.04,0.98
397,diffa,0,NE,1645511514,29,13.3154,12.6113,293.24,5.23
398,bagua grande,93,PE,1645511516,86,-5.6374,-78.531,295.45,0.86
399,buta,94,CD,1645511517,26,2.7858,24.73,299.58,0.54
400,samfya,100,ZM,1645511517,93,-11.3649,29.5565,292.15,3.26
401,vrangel,15,RU,1645511518,52,42.7297,133.0839,265.57,8.61
402,miramar,100,US,1645511293,84,25.9873,-80.2323,296.49,6.17
403,lunglei,5,IN,1645511518,21,22.8833,92.7333,297.37,2.38
404,ornskoldsvik,20,SE,1645511519,85,63.2909,18.7153,262.68,4.12
405,kjopsvik,37,NO,1645511519,90,68.097,16.3742,257.08,3.48
406,bako,91,ET,1645511520,36,5.7833,36.5667,300.4,1.25
407,paracatu,100,BR,1645511520,96,-17.2222,-46.8747,292.57,0.7
408,agirish,100,RU,1645511521,89,61.9247,63.0231,267.95,4.86
409,anqing,100,CN,1645511521,59,30.5092,117.0506,279.47,4.61
410,aasiaat,100,GL,1645511522,94,68.7098,-52.8699,252.27,3.65
411,killybegs,79,IE,1645511522,74,54.6333,-8.45,279.51,10.15
412,shingu,2,JP,1645511523,42,33.7333,135.9833,281.7,6.56
413,faya,47,SA,1645511524,27,18.3851,42.4509,288.44,1.72
414,jieshi,100,CN,1645511524,84,22.8134,115.8257,283.68,4.84
415,taber,100,CA,1645511405,84,49.8167,-112.1518,251.21,2.06
416,tilichiki,100,RU,1645511525,89,60.4667,166.1,246.41,4.45
417,pontevedra,58,ES,1645511509,73,42.431,-8.6444,282.65,2.22
418,poum,14,NC,1645511525,76,-20.2333,164.0167,301.39,7.19
419,ucluelet,1,CA,1645511526,69,48.9329,-125.5528,276.53,5.55
420,ambilobe,100,MG,1645511526,88,-13.2,49.05,300.13,4.65
421,severo-kurilsk,100,RU,1645511527,77,50.6789,156.125,272.59,12.71
422,luanda,20,AO,1645511423,83,-8.8368,13.2343,299.15,2.06
423,wewak,100,PG,1645511528,91,-3.5534,143.6268,298.3,5.33
424,zhangjiakou,1,CN,1645511528,52,40.81,114.8794,266.74,2.49
425,lodja,100,CD,1645511528,93,-3.4833,23.4333,295.47,0.72
426,rio grande,51,GR,1645511354,79,38.3,21.7833,286.92,3.54
427,salinopolis,87,BR,1645511478,87,-0.6136,-47.3561,299.11,4.52
428,mpongwe,100,ZM,1645511529,87,-13.5091,28.155,294.18,1.81
429,podporozhye,100,RU,1645511530,97,60.9112,34.1706,271.25,3.12
430,mbandaka,100,CD,1645511531,62,0.0487,18.2603,299.82,0.15
431,husavik,100,IS,1645511531,79,66.0449,-17.3389,277.1,15.42
432,sukumo,5,JP,1645511532,43,32.9333,132.7333,279.16,7.19
433,urumqi,1,CN,1645511532,62,43.801,87.6005,263.68,2.0
434,vila velha,39,PT,1645511426,70,42.0304,-8.1588,276.64,1.81
435,aykhal,46,RU,1645511533,80,66.0,111.5,263.94,5.1
436,mumford,83,GH,1645511533,89,5.2618,-0.759,299.42,3.64
437,hay river,100,GB,1645511534,87,52.0705,-3.1274,284.62,9.81
438,talara,63,PE,1645511394,81,-4.5772,-81.2719,294.98,4.06
439,galle,34,LK,1645511422,72,6.0367,80.217,301.64,3.19
440,loyga,100,RU,1645511535,95,61.0784,44.6075,269.72,2.61
441,san quintin,37,ML,1645511379,9,13.3034,-4.8956,295.37,4.16
442,antsohihy,100,MG,1645511536,88,-14.8796,47.9875,300.11,3.43
443,yuci,0,CN,1645511537,17,37.6803,112.7319,275.01,1.0
444,ruthin,100,GB,1645511537,82,53.1137,-3.3178,284.87,4.02
445,chernihiv,100,UA,1645511538,85,51.0,32.0,277.68,3.84
446,ushibuka,80,JP,1645511538,53,32.1906,130.0228,279.85,9.58
447,paamiut,100,GL,1645511539,90,61.994,-49.6678,252.74,7.12
448,margate,100,GB,1645511540,80,51.3813,1.3862,281.46,2.24
449,mulege,94,MX,1645511540,66,26.8833,-111.9833,287.32,1.76
450,beni mazar,72,CD,1645511540,35,0.5,29.4667,300.7,0.14
451,tautira,34,PF,1645511541,74,-17.7333,-149.15,300.16,7.3
452,point pleasant,100,ZA,1645511542,87,-29.8647,31.0413,297.68,0.89
453,susanville,100,US,1645511542,83,40.4163,-120.653,272.06,4.47
454,ikom,81,NG,1645511543,75,5.9667,8.7063,298.25,0.59
455,charters towers,100,US,1645511543,67,38.5736,-83.4333,288.12,5.22
456,novopokrovka,100,UA,1645511544,94,49.8425,36.5477,275.36,5.39
457,pacific grove,100,US,1645511544,83,38.482,-90.7415,291.17,0.45
458,ambulu,44,ID,1645511545,76,-8.345,113.6058,301.6,3.97
459,grants pass,0,US,1645511545,51,35.1473,-107.8514,275.28,5.14
460,zhezkazgan,0,KZ,1645511545,79,47.8043,67.7144,266.14,6.0
461,marsh harbour,100,GB,1645511546,32,53.6512,-1.8078,282.12,3.58
462,tairua,0,NZ,1645511546,83,-37.0167,175.85,295.42,1.25
463,seoul,20,KR,1645511547,32,37.5683,126.9778,274.88,6.17
464,victoria point,100,HK,1645511547,94,22.2855,114.1577,285.0,4.92
465,hamilton,20,US,1645511548,68,39.1834,-84.5333,288.01,5.14
466,salekhard,96,RU,1645511548,90,66.53,66.6019,266.08,3.01
467,paranhos,21,BR,1645511549,82,-23.8928,-55.4311,293.9,1.3
468,riyadh,0,SA,1645511354,19,24.6877,46.7219,293.18,0.51
469,huilong,100,CN,1645511549,51,31.8111,121.655,280.92,4.35
470,lavrentiya,100,RU,1645511550,98,65.5833,-171.0,271.36,3.56
471,bredy,8,RU,1645511550,91,52.4153,60.3411,269.09,3.77
472,praya,75,CV,1645511551,73,14.9215,-23.5087,294.45,7.72
473,christchurch,36,NZ,1645511272,47,-43.5333,172.6333,298.26,4.63
474,nara,96,JP,1645511551,36,34.6851,135.8049,281.77,7.76
475,vardo,100,NO,1645511552,65,70.3705,31.1107,267.01,1.05
476,taoudenni,88,ML,1645511553,11,22.6783,-3.9836,296.71,3.89
477,nyurba,100,RU,1645511553,90,63.2842,118.3319,263.86,3.07
478,azuaga,4,ES,1645511553,57,38.2667,-5.6833,280.35,2.87
479,puerto leguizamo,0,ES,1645511554,78,36.5939,-6.233,280.51,1.03
480,sur,0,OM,1645511554,53,22.5667,59.5289,297.37,5.31
481,mamallapuram,8,IN,1645511555,59,12.6264,80.1722,304.18,3.85
482,broome,0,US,1645511556,68,42.2506,-75.833,279.36,3.09
483,mayumba,100,GA,1645511556,92,-3.432,10.6554,297.3,4.07
484,bubaque,1,GW,1645511557,72,11.2833,-15.8333,297.07,4.36
485,sain alto,69,IN,1645511557,20,30.4157,78.5976,290.48,2.58
486,pechora,100,RU,1645511557,93,65.1472,57.2244,267.84,3.24
487,sardulgarh,84,IN,1645511558,24,29.7,75.25,299.2,9.48
488,qaqortoq,100,GL,1645511558,80,60.7167,-46.0333,254.43,1.62
489,pevek,100,RU,1645511323,98,69.7008,170.3133,238.66,1.96
490,belyy yar,99,RU,1645511559,90,55.8402,32.9419,273.61,4.76
491,hendek,96,TR,1645511560,66,40.7994,30.7481,278.33,2.34
492,carutapera,80,BR,1645511560,94,-1.195,-46.02,297.26,2.76
493,lorengau,100,PG,1645511560,89,-2.0226,147.2712,298.25,3.78
494,assiniboia,85,CA,1645511423,69,49.6334,-105.9845,246.1,2.57
495,dubbo,75,AU,1645511364,42,-32.25,148.6167,302.22,11.32
496,bermejo,75,AR,1645511561,100,-32.8833,-68.8,288.1,3.6
497,sarab,6,IR,1645511562,54,38.6066,44.9883,280.37,0.8
498,banda aceh,5,IN,1645511562,14,25.4833,80.3333,301.66,2.33
499,cascais,16,PT,1645511563,55,38.6979,-9.4215,286.74,7.15
500,coquimbo,0,CL,1645511563,77,-29.9533,-71.3436,290.05,1.0
501,vargashi,100,RU,1645511564,94,55.3556,65.8467,270.63,4.56
502,rondonopolis,5,BR,1645511564,97,-16.4708,-54.6356,293.51,1.37
503,northam,100,GB,1645511565,87,51.0333,-4.2167,284.66,10.34
504,asfi,5,MA,1645511565,59,32.2994,-9.2372,289.67,4.43
505,port lincoln,100,CD,1645511326,77,-7.0349,29.7638,296.92,1.71
506,xining,10,CN,1645511383,35,36.6167,101.7667,269.98,2.29
507,teguldet,100,RU,1645511566,91,57.3064,88.1667,269.91,4.92
508,paragominas,100,BR,1645511567,98,-2.9667,-47.4833,294.74,1.28
509,sakakah,99,SA,1645511567,33,29.9697,40.2064,285.91,1.96
510,hervey bay,100,US,1645511568,73,33.4982,-93.7771,295.4,5.09
511,mayo,0,US,1645511568,91,38.8876,-76.5119,285.56,4.12
512,balkhash,0,KZ,1645511569,73,46.844,74.9804,267.49,7.0
513,bonavista,22,CA,1645511448,58,48.6499,-53.1147,269.15,10.88
514,kuloy,100,RU,1645511570,95,61.0305,42.4925,268.6,3.05
515,solok,100,ID,1645511570,74,-0.7918,100.6593,302.68,0.79
516,west bay,100,US,1645511571,81,31.8024,-97.0917,295.4,7.6
517,huinan,100,CN,1645511571,70,42.6225,126.2614,261.34,3.88
518,zabol,51,AF,1645511571,61,32.25,67.25,280.64,9.67
519,atambua,100,ID,1645511572,89,-9.1061,124.8925,296.79,0.34
520,liepaja,100,LV,1645511572,86,56.5419,21.0367,275.18,7.72
521,murshidabad,0,IN,1645511573,30,24.1833,88.2667,300.14,0.51
522,san cristobal,37,ML,1645511379,9,13.3034,-4.8956,295.37,4.16
523,wonthaggi,0,AU,1645511573,60,-38.6044,145.5913,299.78,6.43
524,panna,0,IN,1645511574,10,24.7167,80.2,298.88,3.06
525,college,100,US,1645511574,84,64.8569,-147.8028,266.12,2.06
526,aksu,0,CN,1645511575,27,41.1231,80.2644,276.89,1.24
527,kabale,73,UG,1645511575,48,-1.2486,29.9899,294.77,2.03
528,magole,100,TZ,1645511575,86,-6.3667,37.3667,297.21,1.32
529,baghdad,41,IQ,1645511306,67,33.3406,44.4009,288.1,1.54
530,inirida,100,CO,1645511576,70,3.8653,-67.9239,298.23,1.0
531,pando,75,UY,1645511576,83,-34.7167,-55.95,294.25,4.63
532,antequera,7,ES,1645511577,52,37.0194,-4.5612,286.73,1.88
533,whitehorse,40,CA,1645511475,59,60.7161,-135.0538,257.58,8.75
534,iskilip,87,TR,1645511577,83,40.7353,34.4739,278.78,2.08
535,vila franca do campo,39,PT,1645511577,70,42.0304,-8.1588,276.64,1.81
536,ormara,0,PK,1645511578,59,25.2088,64.6357,297.59,4.0
537,nhamunda,45,BR,1645511578,97,-2.1861,-56.7131,295.9,0.88
538,zamora,100,EC,1645511579,99,-4.0692,-78.9567,292.67,0.55
539,solnechnogorsk,100,RU,1645511579,99,56.1833,36.9833,275.11,4.43
540,tamale,80,GH,1645511580,15,9.4008,-0.8393,297.11,1.7
541,pisco,100,PE,1645511580,88,-13.7,-76.2167,295.18,2.06
542,sorland,18,NO,1645511581,47,67.667,12.6934,271.07,2.58
543,kapuskasing,100,CA,1645511581,71,49.4169,-82.4331,251.2,5.14
544,lima,100,PE,1645511463,56,-12.0432,-77.0282,295.59,2.57
545,ippy,100,CF,1645511582,15,6.2679,21.2247,300.34,2.58
546,ust-omchug,2,RU,1645511583,90,61.15,149.6333,240.55,0.98
547,cairns,100,AU,1645511326,77,-16.9167,145.7667,308.31,4.63
548,blagoyevo,96,RU,1645511584,94,63.3667,47.9167,267.46,1.83
549,kruisfontein,0,ZA,1645511584,55,-34.0033,24.7314,291.97,0.84
550,nador,4,MA,1645511585,100,35.174,-2.9287,283.29,0.0
551,naantali,75,FI,1645511585,80,60.4674,22.0243,270.38,4.12
552,ede,100,NL,1645511583,96,52.0333,5.6583,278.59,3.6
553,ribeira brava,0,ES,1645511586,83,42.7461,-8.4439,279.27,1.03
554,andili,30,PH,1645511586,64,7.462,125.9701,302.55,1.6
